{
  "server": {
    "port": 3001,
    "host": "0.0.0.0"
  },
  "security": {
    "apiToken": "your-secure-api-token-here",
    "allowedIPs": [
      "127.0.0.1",
      "::1",
      "192.168.1.0/24",
      "10.0.0.0/8"
    ]
  },
  "data": {
    "csvPath": "./data/threat_data.csv",
    "pollInterval": 5000,
    "maxEvents": 10000,
    "timeframes": {
      "1h": 3600000,
      "24h": 86400000,
      "7d": 604800000
    }
  },
  "map": {
    "defaultView": "globe",
    "centerLat": -25,
    "centerLon": 133,
    "autoRotate": false,
    "rotateInterval": 60000,
    "arcDisplayPercentage": 100,
    "defensiveCities": [
      {
        "name": "Adelaide",
        "lat": -34.9285,
        "lng": 138.6007,
        "size": 0.8
      },
      {
        "name": "Melbourne",
        "lat": -37.8136,
        "lng": 144.9631,
        "size": 0.8
      },
      {
        "name": "Sydney",
        "lat": -33.8688,
        "lng": 151.2093,
        "size": 0.6
      },
      {
        "name": "Brisbane",
        "lat": -27.4698,
        "lng": 153.0251,
        "size": 0.6
      },
      {
        "name": "Perth",
        "lat": -31.9505,
        "lng": 115.8605,
        "size": 0.6
      },
      {
        "name": "Canberra",
        "lat": -35.2809,
        "lng": 149.13,
        "size": 0.5
      },
      {
        "name": "Hobart",
        "lat": -42.8821,
        "lng": 147.3272,
        "size": 0.5
      },
      {
        "name": "Darwin",
        "lat": -12.4634,
        "lng": 130.8456,
        "size": 0.5
      }
    ]
  },
  "branding": {
    "icon": "",
    "companyName": ""
  },
  "destinationLabels": {
    "200.200.1.1": "Adelaide Web Server",
    "200.200.1.2": "Adelaide Load Balancer",
    "200.200.1.3": "Adelaide VPN Gateway",
    "200.200.1.4": "Adelaide Mail Server",
    "200.200.1.5": "Adelaide Database Server",
    "200.200.2.1": "Sydney Web Server",
    "200.200.2.2": "Sydney Load Balancer",
    "200.200.2.3": "Sydney VPN Gateway",
    "200.200.2.4": "Sydney Mail Server",
    "200.200.2.5": "Sydney Database Server",
    "200.200.3.1": "Melbourne Web Server",
    "200.200.3.2": "Melbourne Load Balancer",
    "200.200.3.3": "Melbourne VPN Gateway",
    "200.200.3.4": "Melbourne Mail Server",
    "200.200.3.5": "Melbourne Database Server",
    "200.200.4.1": "Brisbane Web Server",
    "200.200.4.2": "Brisbane Load Balancer",
    "200.200.4.3": "Brisbane VPN Gateway",
    "200.200.4.4": "Brisbane Mail Server",
    "200.200.4.5": "Brisbane Database Server",
    "200.200.5.1": "Perth Web Server",
    "200.200.5.2": "Perth Load Balancer",
    "200.200.5.3": "Perth VPN Gateway",
    "200.200.5.4": "Perth Mail Server",
    "200.200.5.5": "Perth Database Server",
    "200.200.6.1": "Canberra Web Server",
    "200.200.6.2": "Canberra Load Balancer",
    "200.200.6.3": "Canberra VPN Gateway",
    "200.200.6.4": "Canberra Mail Server",
    "200.200.6.5": "Canberra Database Server",
    "200.200.7.1": "Hobart Web Server",
    "200.200.7.2": "Hobart Load Balancer",
    "200.200.7.3": "Hobart VPN Gateway",
    "200.200.7.4": "Hobart Mail Server",
    "200.200.7.5": "Hobart Database Server",
    "200.200.8.1": "Darwin Web Server",
    "200.200.8.2": "Darwin Load Balancer",
    "200.200.8.3": "Darwin VPN Gateway",
    "200.200.8.4": "Darwin Mail Server",
    "200.200.8.5": "Darwin Database Server"
  }
}